{
    "type": "FeatureCollection",
    "features": [
    {
        "type": "Feature",
        "properties": {
            "name": "Cutlery Works",
            "description": "A street food venue with a variety of global cuisines.",
            "type": "1",
            "timeCreated": 1676647678299
        },
        "geometry": {
            "type": "Point",
            "coordinates": [
                -1.478182899086022,
                53.392972738215775
            ]
        }
    },
    {
        "type": "Feature",
        "properties": {
            "name": "Best Burrito In Sheffield",
            "description": "the best burrito place in sheffield, has won many awards.",
            "type": "1",
            "timeCreated": 1676667537235
        },
        "geometry": {
            "type": "Point",
            "coordinates": [
                -1.4688229568619136,
                53.37654342555504
            ]
        }
    },
     {
    "type": "Feature",
    "properties": {
        "name": "Car crash",
        "description": "crash blocking up Eyre Street northbound",
        "timeCreated": 1678895684612,
        "type": "2"
    },
    "geometry": {
        "type": "Point",
        "coordinates": [
            -1.4714319338821724,
            53.37600591196073
        ]
    }
},
{
    "type": "Feature",
    "properties": {
        "name": "Street food burger van",
        "description": "Very good prices for london",
        "timeCreated": 1679059680440,
        "type": "1"
    },
    "geometry": {
        "type": "Point",
        "coordinates": [
            -0.12601582753941898,
            51.502330207615444
        ]
    }
},
 {
    "type": "Feature",
    "properties": {
        "name": "Traffic backed up all the way down the mall",
        "description": "Dont even try to go down there",
        "timeCreated": 1679062976609,
        "type": "2"
    },
    "geometry": {
        "type": "Point",
        "coordinates": [
            -0.13670606405679564,
            51.50340678470516
        ]
    }
}
]
}
